[{"nombre": "Aeropuerto de Mallorca", "latitud": 39.547252019169925, "longitud": 2.73001133582378, "location": {"type": "Point", "coordinates": [39.547252019169925, 2.73001133582378]}}, {"nombre": "Sixt Alquiler de Coches | Palma De Mallorca Aeropuerto", "latitud": 39.5478457, "longitud": 2.7312819, "location": {"type": "Point", "coordinates": [39.5478457, 2.7312819]}}, {"nombre": "Aeropuerto Son Sant Joan puerta D 88", "latitud": 39.57095958441597, "longitud": 2.6700119367184856, "location": {"type": "Point", "coordinates": [39.57095958441597, 2.6700119367184856]}}, {"nombre": "Cantina Aeropuerto", "latitud": 39.55048216693811, "longitud": 2.7305853366851807, "location": {"type": "Point", "coordinates": [39.55048216693811, 2.7305853366851807]}}, {"nombre": "Aeroport de Palma de Mallorca (PMI) (Aeropuerto de Palma de Mallorca)", "latitud": 39.54818501950227, "longitud": 2.731742867324149, "location": {"type": "Point", "coordinates": [39.54818501950227, 2.731742867324149]}}, {"nombre": "McDonald's", "latitud": 39.54935318005964, "longitud": 2.735949365355958, "location": {"type": "Point", "coordinates": [39.54935318005964, 2.735949365355958]}}, {"nombre": "Avis Alquiler de Coches Aeropuerto de Mallorca", "latitud": 39.547083310330706, "longitud": 2.7293190865432786, "location": {"type": "Point", "coordinates": [39.547083310330706, 2.7293190865432786]}}, {"nombre": "Reserva Taxis Aeropuerto", "latitud": 39.54208378132311, "longitud": 2.7190230558315878, "location": {"type": "Point", "coordinates": [39.54208378132311, 2.7190230558315878]}}, {"nombre": "Alamo Rent A Car - Aeropuerto de Palma de Mallorca", "latitud": 39.54764, "longitud": 2.73039, "location": {"type": "Point", "coordinates": [39.54764, 2.73039]}}, {"nombre": "Silla 545 Aeropuerto Mallorca", "latitud": 39.548562594638575, "longitud": 2.7260309105798433, "location": {"type": "Point", "coordinates": [39.548562594638575, 2.7260309105798433]}}, {"nombre": "Arribades / Llegadas / Arrivals (Llegadas)", "latitud": 39.5472612054924, "longitud": 2.7304605308485463, "location": {"type": "Point", "coordinates": [39.5472612054924, 2.7304605308485463]}}, {"nombre": "Parada Aeropuerto", "latitud": 39.547036, "longitud": 2.729206, "location": {"type": "Point", "coordinates": [39.547036, 2.729206]}}, {"nombre": "Parking Saba Aeropuerto Palma de Mallorca", "latitud": 39.54645612, "longitud": 2.73040866, "location": {"type": "Point", "coordinates": [39.54645612, 2.73040866]}}, {"nombre": "Europcar Mallorca Palma Aeropuerto", "latitud": 39.5478506, "longitud": 2.7312755, "location": {"type": "Point", "coordinates": [39.5478506, 2.7312755]}}, {"nombre": "Sortides / Salidas / Departures (Salidas)", "latitud": 39.54742123090169, "longitud": 2.7314114570617676, "location": {"type": "Point", "coordinates": [39.54742123090169, 2.7314114570617676]}}, {"nombre": "Repsol", "latitud": 39.54596271864004, "longitud": 2.72248956676419, "location": {"type": "Point", "coordinates": [39.54596271864004, 2.72248956676419]}}, {"nombre": "Porta/Puerta/Gate D80 (Puerta D80)", "latitud": 39.54761838344375, "longitud": 2.7329637446122828, "location": {"type": "Point", "coordinates": [39.54761838344375, 2.7329637446122828]}}, {"nombre": "National Car Rental", "latitud": 39.5457, "longitud": 2.7265, "location": {"type": "Point", "coordinates": [39.5457, 2.7265]}}, {"nombre": "Porta/Puerta/Gate D96 (Puerta D96)", "latitud": 39.54519961571285, "longitud": 2.7315141342400318, "location": {"type": "Point", "coordinates": [39.54519961571285, 2.7315141342400318]}}, {"nombre": "Porta/Puerta/Gate D93 (Puerta D93)", "latitud": 39.54546676244789, "longitud": 2.731925644077038, "location": {"type": "Point", "coordinates": [39.54546676244789, 2.731925644077038]}}, {"nombre": "Camper", "latitud": 39.56701130327735, "longitud": 2.733350694714813, "location": {"type": "Point", "coordinates": [39.56701130327735, 2.733350694714813]}}, {"nombre": "Porta/Puerta/Gate D84 (Puerta D84)", "latitud": 39.546683651832666, "longitud": 2.7336045034050067, "location": {"type": "Point", "coordinates": [39.546683651832666, 2.7336045034050067]}}, {"nombre": "Duana", "latitud": 39.54730540904894, "longitud": 2.733128070831299, "location": {"type": "Point", "coordinates": [39.54730540904894, 2.733128070831299]}}, {"nombre": "Porta / Puerta / Gate B 30", "latitud": 39.54933639993748, "longitud": 2.732135653495788, "location": {"type": "Point", "coordinates": [39.54933639993748, 2.732135653495788]}}, {"nombre": "Farm\u00e0cia", "latitud": 39.5471761192304, "longitud": 2.7323937636262334, "location": {"type": "Point", "coordinates": [39.5471761192304, 2.7323937636262334]}}, {"nombre": "Porta/Puerta/Gate D82 (Puerta D82)", "latitud": 39.54719103183154, "longitud": 2.733309718877268, "location": {"type": "Point", "coordinates": [39.54719103183154, 2.733309718877268]}}, {"nombre": "Cafeter\u00eda \u00c1rea de Servicios / Cantina Taxis", "latitud": 39.5418959816182, "longitud": 2.719091041080235, "location": {"type": "Point", "coordinates": [39.5418959816182, 2.719091041080235]}}, {"nombre": "Starbucks", "latitud": 39.549417074407685, "longitud": 2.73686413794003, "location": {"type": "Point", "coordinates": [39.549417074407685, 2.73686413794003]}}, {"nombre": "Interrent", "latitud": 39.54736236859971, "longitud": 2.730834487078937, "location": {"type": "Point", "coordinates": [39.54736236859971, 2.730834487078937]}}, {"nombre": "Aparcament d'abonats B", "latitud": 39.54756236275295, "longitud": 2.7284302363605057, "location": {"type": "Point", "coordinates": [39.54756236275295, 2.7284302363605057]}}, {"nombre": "Discoteca Altamar", "latitud": 39.79609200270049, "longitud": 2.6969282150269636, "location": {"type": "Point", "coordinates": [39.79609200270049, 2.6969282150269636]}}, {"nombre": "Discoteca La Roca", "latitud": 39.76258581237569, "longitud": 3.0853269067012103, "location": {"type": "Point", "coordinates": [39.76258581237569, 3.0853269067012103]}}, {"nombre": "Sabores de Sandra VEGAN Restaurant", "latitud": 39.5770042, "longitud": 2.6377468, "location": {"type": "Point", "coordinates": [39.5770042, 2.6377468]}}, {"nombre": "Vegan & Raw", "latitud": 39.57587445446343, "longitud": 2.6486116647720337, "location": {"type": "Point", "coordinates": [39.57587445446343, 2.6486116647720337]}}, {"nombre": "Sabor Vegan Culinary Academy", "latitud": 39.57387362978236, "longitud": 2.653283807045242, "location": {"type": "Point", "coordinates": [39.57387362978236, 2.653283807045242]}}, {"nombre": "LoVegano", "latitud": 39.57294406832292, "longitud": 2.6380256461803793, "location": {"type": "Point", "coordinates": [39.57294406832292, 2.6380256461803793]}}, {"nombre": "Lo vegano", "latitud": 39.5664712939164, "longitud": 2.6546788215637207, "location": {"type": "Point", "coordinates": [39.5664712939164, 2.6546788215637207]}}, {"nombre": "100% Mexicano Vegano", "latitud": 39.593426, "longitud": 2.6198688, "location": {"type": "Point", "coordinates": [39.593426, 2.6198688]}}, {"nombre": "Villa Vegana", "latitud": 39.65239244027836, "longitud": 2.624197250452141, "location": {"type": "Point", "coordinates": [39.65239244027836, 2.624197250452141]}}, {"nombre": "Donna Vegana", "latitud": 39.49667, "longitud": 2.475299, "location": {"type": "Point", "coordinates": [39.49667, 2.475299]}}, {"nombre": "Villa Vegana", "latitud": 39.748843, "longitud": 2.928074, "location": {"type": "Point", "coordinates": [39.748843, 2.928074]}}, {"nombre": "Guarder\u00eda Santa Monica", "latitud": 39.5807052869168, "longitud": 2.6655007176698415, "location": {"type": "Point", "coordinates": [39.5807052869168, 2.6655007176698415]}}, {"nombre": "guarder\u00eda son espases", "latitud": 39.60553822470896, "longitud": 2.647183822956812, "location": {"type": "Point", "coordinates": [39.60553822470896, 2.647183822956812]}}]