[{"nombre": "Aeropuerto de Salamanca-Matac\u00e1n (SLM)", "latitud": 40.94017220282839, "longitud": -5.502113981972948, "location": {"type": "Point", "coordinates": [40.94017220282839, -5.502113981972948]}}, {"nombre": "Tee Pub", "latitud": 40.96711301075625, "longitud": -5.66274462835484, "location": {"type": "Point", "coordinates": [40.96711301075625, -5.66274462835484]}}, {"nombre": "King's Pub", "latitud": 40.967073, "longitud": -5.663044, "location": {"type": "Point", "coordinates": [40.967073, -5.663044]}}, {"nombre": "O'haras's irish pub", "latitud": 40.96601, "longitud": -5.663938, "location": {"type": "Point", "coordinates": [40.96601, -5.663938]}}, {"nombre": "Oharas irish pub", "latitud": 40.96585589708964, "longitud": -5.664116006614261, "location": {"type": "Point", "coordinates": [40.96585589708964, -5.664116006614261]}}, {"nombre": "Pub Monumental", "latitud": 40.968881660658376, "longitud": -5.663795471191406, "location": {"type": "Point", "coordinates": [40.968881660658376, -5.663795471191406]}}, {"nombre": "The Liverpool Pub", "latitud": 40.96402364388889, "longitud": -5.662056383089544, "location": {"type": "Point", "coordinates": [40.96402364388889, -5.662056383089544]}}, {"nombre": "London Pub", "latitud": 40.96358340898263, "longitud": -5.662153959274292, "location": {"type": "Point", "coordinates": [40.96358340898263, -5.662153959274292]}}, {"nombre": "Pub Baretto", "latitud": 40.9686222, "longitud": -5.6577572, "location": {"type": "Point", "coordinates": [40.9686222, -5.6577572]}}, {"nombre": "Palafox pub cafe", "latitud": 40.970105969134984, "longitud": -5.6623799600894165, "location": {"type": "Point", "coordinates": [40.970105969134984, -5.6623799600894165]}}, {"nombre": "Peter's Pub", "latitud": 40.962919854538676, "longitud": -5.6619742050858815, "location": {"type": "Point", "coordinates": [40.962919854538676, -5.6619742050858815]}}, {"nombre": "Pub Monumental", "latitud": 40.97283622081143, "longitud": -5.667231010884938, "location": {"type": "Point", "coordinates": [40.97283622081143, -5.667231010884938]}}, {"nombre": "Pub Gotas", "latitud": 40.9765, "longitud": -5.66323, "location": {"type": "Point", "coordinates": [40.9765, -5.66323]}}, {"nombre": "Plan B", "latitud": 40.967730995650605, "longitud": -5.666304114192668, "location": {"type": "Point", "coordinates": [40.967730995650605, -5.666304114192668]}}, {"nombre": "Gatsby", "latitud": 40.96596497644346, "longitud": -5.666510387616019, "location": {"type": "Point", "coordinates": [40.96596497644346, -5.666510387616019]}}, {"nombre": "Pubeer", "latitud": 40.96774875245904, "longitud": -5.666309250690691, "location": {"type": "Point", "coordinates": [40.96774875245904, -5.666309250690691]}}, {"nombre": "De Laval Genov\u00e9s (El Submarino)", "latitud": 40.962992271160566, "longitud": -5.66147771546796, "location": {"type": "Point", "coordinates": [40.962992271160566, -5.66147771546796]}}, {"nombre": "Siete Mandarinas. Agencia de Publicidad", "latitud": 40.969991485178184, "longitud": -5.658077001571655, "location": {"type": "Point", "coordinates": [40.969991485178184, -5.658077001571655]}}, {"nombre": "S\u00famate.Publicidad redes sociales", "latitud": 40.96891825499191, "longitud": -5.658870798984649, "location": {"type": "Point", "coordinates": [40.96891825499191, -5.658870798984649]}}, {"nombre": "Colegio Publico Padre Manj\u00f3n", "latitud": 40.96297163120784, "longitud": -5.658414979934803, "location": {"type": "Point", "coordinates": [40.96297163120784, -5.658414979934803]}}, {"nombre": "Biblioteca P\u00fablica \"Casa de las Conchas\"", "latitud": 40.9628833226134, "longitud": -5.6659061199092715, "location": {"type": "Point", "coordinates": [40.9628833226134, -5.6659061199092715]}}, {"nombre": "Servicio P\u00fablico de Empleo de Castilla y Le\u00f3n", "latitud": 40.962018882683196, "longitud": -5.658954242696059, "location": {"type": "Point", "coordinates": [40.962018882683196, -5.658954242696059]}}, {"nombre": "Pub Moon", "latitud": 41.02884362000172, "longitud": -5.642567988638198, "location": {"type": "Point", "coordinates": [41.02884362000172, -5.642567988638198]}}, {"nombre": "Colegio Publico Gran Capitan", "latitud": 40.97740468923213, "longitud": -5.671720799173129, "location": {"type": "Point", "coordinates": [40.97740468923213, -5.671720799173129]}}, {"nombre": "Junta de Castilla y Le\u00f3n Oficina del Servicio P\u00fablico de Empleo. Salamanca I. San Jos\u00e9 Ecyl", "latitud": 40.94900755198168, "longitud": -5.663684558339069, "location": {"type": "Point", "coordinates": [40.94900755198168, -5.663684558339069]}}, {"nombre": "A Duo Publicidad", "latitud": 40.94744, "longitud": -5.658651, "location": {"type": "Point", "coordinates": [40.94744, -5.658651]}}, {"nombre": "Pitukis Club's", "latitud": 40.99994954900848, "longitud": -5.694027148635677, "location": {"type": "Point", "coordinates": [40.99994954900848, -5.694027148635677]}}, {"nombre": "Colegio Publico Miguel Hernandez", "latitud": 40.94701588153839, "longitud": -5.63249945640564, "location": {"type": "Point", "coordinates": [40.94701588153839, -5.63249945640564]}}, {"nombre": "Biblioteca P\u00fablica Municipal Torrente Ballester", "latitud": 40.9782385605734, "longitud": -5.654832946044117, "location": {"type": "Point", "coordinates": [40.9782385605734, -5.654832946044117]}}, {"nombre": "Pub Parthenon", "latitud": 40.9974542, "longitud": -5.382698418, "location": {"type": "Point", "coordinates": [40.9974542, -5.382698418]}}, {"nombre": "Publitormes", "latitud": 40.8230457, "longitud": -5.5131518, "location": {"type": "Point", "coordinates": [40.8230457, -5.5131518]}}, {"nombre": "269 Gastro Vegan", "latitud": 40.967159, "longitud": -5.665964, "location": {"type": "Point", "coordinates": [40.967159, -5.665964]}}, {"nombre": "Guarder\u00eda British Bubbles", "latitud": 40.970825866502224, "longitud": -5.665715932846069, "location": {"type": "Point", "coordinates": [40.970825866502224, -5.665715932846069]}}, {"nombre": "Guarderia Simba", "latitud": 40.97041856127861, "longitud": -5.667228691023867, "location": {"type": "Point", "coordinates": [40.97041856127861, -5.667228691023867]}}, {"nombre": "Guarder\u00eda Cari", "latitud": 40.952194782, "longitud": -5.627497142, "location": {"type": "Point", "coordinates": [40.952194782, -5.627497142]}}]